<?xml version="1.0"?>
<ArrayOfCustomer xmlns:xsi="http://www.w3.org/2001/XMLSchema-instance" xmlns:xsd="http://www.w3.org/2001/XMLSchema">
  <Customer>
    <CustomerId>200532406</CustomerId>
    <Name>רביבו</Name>
    <Phone>057-1117665</Phone>
    <Longtitude>32.0932</Longtitude>
    <Latitude>34.8306</Latitude>
  </Customer>
  <Customer>
    <CustomerId>309865341</CustomerId>
    <Name>פיני איינהורן</Name>
    <Phone>052-5824631</Phone>
    <Longtitude>32.0934</Longtitude>
    <Latitude>34.8415</Latitude>
  </Customer>
  <Customer>
    <CustomerId>203548976</CustomerId>
    <Name>יוני רבינוביץ</Name>
    <Phone>054-4376615</Phone>
    <Longtitude>32.0937</Longtitude>
    <Latitude>34.8364</Latitude>
  </Customer>
  <Customer>
    <CustomerId>349927608</CustomerId>
    <Name>דניאל שרם</Name>
    <Phone>053-7557467</Phone>
    <Longtitude>32.0878</Longtitude>
    <Latitude>34.8901</Latitude>
  </Customer>
  <Customer>
    <CustomerId>200786113</CustomerId>
    <Name>שוקי אלבירט</Name>
    <Phone>058-9432005</Phone>
    <Longtitude>32.094</Longtitude>
    <Latitude>34.8362</Latitude>
  </Customer>
  <Customer>
    <CustomerId>201344879</CustomerId>
    <Name>ליאור וענונו</Name>
    <Phone>050-1177742</Phone>
    <Longtitude>32.0993</Longtitude>
    <Latitude>34.8361</Latitude>
  </Customer>
  <Customer>
    <CustomerId>301242853</CustomerId>
    <Name>אפרים שוובר</Name>
    <Phone>050-7109683</Phone>
    <Longtitude>32.0943</Longtitude>
    <Latitude>34.8289</Latitude>
  </Customer>
  <Customer>
    <CustomerId>209433871</CustomerId>
    <Name>אבנר לבייב</Name>
    <Phone>050-9730020</Phone>
    <Longtitude>32.0856</Longtitude>
    <Latitude>34.8227</Latitude>
  </Customer>
  <Customer>
    <CustomerId>311890522</CustomerId>
    <Name>יענקי סלוד</Name>
    <Phone>052-6540832</Phone>
    <Longtitude>32.0963</Longtitude>
    <Latitude>34.8322</Latitude>
  </Customer>
  <Customer>
    <CustomerId>200996586</CustomerId>
    <Name>משה דוד לוי</Name>
    <Phone>051-137463</Phone>
    <Longtitude>32.0948</Longtitude>
    <Latitude>34.8293</Latitude>
  </Customer>
  <Customer>
    <CustomerId>30</CustomerId>
    <Name>avi</Name>
    <Phone>0532353640</Phone>
    <Longtitude>35.2</Longtitude>
    <Latitude>35.4</Latitude>
  </Customer>
</ArrayOfCustomer>